{
    "userId" : "01",
    "displayName" : "Cop 1",
    "phone" : "01",
    "email" : "cop01@gmail.com",
    "earnedRatings" : 21,
    "totalRatings" : 25,
    "location" : {
        "type" : "Point",
        "address" : "Koregaon Park, Pune, Maharashtra, India",
        "coordinates" : [
            73.8940,
            18.5362
        ]
    }
}
{
    "userId" : "02",
    "displayName" : "Cop 2",
    "phone" : "02",
    "email" : "cop02@gmail.com",
    "earnedRatings" : 10,
    "totalRatings" : 25,
    "location" : {
        "type" : "Point",
        "address" : "Kalyani Nagar, Pune, Maharashtra, India",
        "coordinates" : [
            73.9033,
            18.5463
        ]
    }

}
{
    "userId" : "03",
    "displayName" : "Cop 3",
    "phone" : "03",
    "email" : "cop03@gmail.com",
    "earnedRatings" : 15,
    "totalRatings" : 25,
    "location" : {
        "type" : "Point",
        "address" : "Magarpatta, Pune, Maharashtra, India",
        "coordinates" : [
            73.9272,
            18.5158
        ]
    }
}
{
    "userId" : "04",
    "displayName" : "Cop 4",
    "phone" : "04",
    "email" : "cop04@gmail.com",
    "earnedRatings" : 11,
    "totalRatings" : 25,
    "location" : {
        "type" : "Point",
        "address" : "Viman Nagar, Pune, Maharashtra, India",
        "coordinates" : [
            73.9143,
            18.5679
        ]
    }
}
{
    "userId" : "05",
    "displayName" : "Cop 5",
    "phone" : "05",
    "email" : "cop05@gmail.com",
    "earnedRatings" : 15,
    "totalRatings" : 25,
    "location" : {
        "type" : "Point",
        "address" : "Yerwada, Pune, Maharashtra, India",
        "coordinates" : [
            73.8796,
            18.5529
        ]
    }
}
{
    "userId" : "06",
    "displayName" : "Cop 6",
    "phone" : "06",
    "email" : "cop06@gmail.com",
    "earnedRatings" : 21,
    "totalRatings" : 25,
    "location" : {
        "type" : "Point",
        "address" : "869, 12th Main Rd, Koramangala 3 Block, Koramangala, Bengaluru, Karnataka 560034, India",
        "coordinates" : [
            77.62710779999998,
            12.9279232
        ]
    }

}
{
    "userId" : "07",
    "displayName" : "Cop 7",
    "phone" : "07",
    "email" : "cop07@gmail.com",
    "earnedRatings" : 18,
    "totalRatings" : 25,
    "location" : {
        "type" : "Point",
        "address" : "7th Cross Rd, Domlur I Stage, Stage 2, Domlur, Bengaluru, Karnataka 560071, India",
        "coordinates" : [
            77.63873160000003,
            12.9609857
        ]
    }
}
